[
  {
    "iata": "AGX",
    "icao": "VOAT",
    "name": "Agatti Aerodrome",
    "latitude": 10.8236,
    "longitude": 72.1763,
    "category": "4C",
    "runway": "09/27",
    "runwayLength": 6000,
    "runwayCode": "09/27"
  },
  {
    "iata": "ATQ",
    "icao": "VIAR",
    "name": "Sri Guru Ram Dass Jee International Airport",
    "latitude": 31.7077,
    "longitude": 74.7972,
    "category": "4C",
    "runway": "16/34",
    "runwayLength": 12000,
    "runwayCode": "16/34"
  },
  {
    "iata": "BHO",
    "icao": "VABP",
    "name": "Raja Bhoj International Airport",
    "latitude": 23.2877,
    "longitude": 77.3373,
    "category": "4C",
    "runway": "08/26",
    "runwayLength": 8200,
    "runwayCode": "08/26"
  },
  {
    "iata": "JAI",
    "icao": "VIJP",
    "name": "Jaipur International Airport",
    "latitude": 26.8242,
    "longitude": 75.8018,
    "category": "4C",
    "runway": "10/28",
    "runwayLength": 12000,
    "runwayCode": "10/28"
  },
  {
    "iata": "JDH",
    "icao": "VIJU",
    "name": "Jodhpur Airport",
    "latitude": 26.2512,
    "longitude": 73.0497,
    "category": "4C",
    "runway": "08/26",
    "runwayLength": 8200,
    "runwayCode": "08/26"
  },
  {
    "iata": "LKO",
    "icao": "VILK",
    "name": "Chaudhary Charan Singh International Airport",
    "latitude": 26.7659,
    "longitude": 80.8854,
    "category": "4C",
    "runway": "09/27",
    "runwayLength": 12000,
    "runwayCode": "09/27"
  },
  {
    "iata": "PAT",
    "icao": "VEPT",
    "name": "Jayaprakash Narayan International Airport",
    "latitude": 25.5913,
    "longitude": 85.0876,
    "category": "4C",
    "runway": "07/25",
    "runwayLength": 8200,
    "runwayCode": "07/25"
  },
  {
    "iata": "PBQ",
    "icao": "VEBM",
    "name": "Bir Tikendrajit International Airport",
    "latitude": 24.7572,
    "longitude": 93.8967,
    "category": "4C",
    "runway": "09/27",
    "runwayLength": 8200,
    "runwayCode": "09/27"
  },
  {
    "iata": "RPR",
    "icao": "VARP",
    "name": "Swami Vivekananda Airport",
    "latitude": 21.1804,
    "longitude": 81.7542,
    "category": "4C",
    "runway": "07/25",
    "runwayLength": 8200,
    "runwayCode": "07/25"
  },
  {
    "iata": "TRV",
    "icao": "VOTV",
    "name": "Thiruvananthapuram International Airport",
    "latitude": 8.4821,
    "longitude": 76.92,
    "category": "4C",
    "runway": "09/27",
    "runwayLength": 12000,
    "runwayCode": "09/27"
  },
  {
    "iata": "UDR",
    "icao": "VAUD",
    "name": "Maharana Pratap Airport",
    "latitude": 24.6177,
    "longitude": 73.8961,
    "category": "4C",
    "runway": "06/24",
    "runwayLength": 8200,
    "runwayCode": "06/24"
  },
  {
    "iata": "VNS",
    "icao": "VEBN",
    "name": "Lal Bahadur Shastri International Airport",
    "latitude": 25.4533,
    "longitude": 82.8588,
    "category": "4C",
    "runway": "09/27",
    "runwayLength": 8200,
    "runwayCode": "09/27"
  },
  {
    "iata": "AMD",
    "icao": "VAAH",
    "name": "Sardar Vallabhbhai Patel International Airport",
    "latitude": 23.0732,
    "longitude": 72.6346,
    "category": "4C",
    "runway": "04/22",
    "runwayLength": 11000,
    "runwayCode": "04/22"
  },
  {
    "iata": "BWA",
    "icao": "VNBW",
    "name": "Bhairahawa Airport",
    "latitude": 27.5053,
    "longitude": 83.4161,
    "category": "4C",
    "runway": "06/24",
    "runwayLength": 5000,
    "runwayCode": "06/24"
  },
  {
    "iata": "CEB",
    "icao": "RPVM",
    "name": "Mactan-Cebu International Airport",
    "latitude": 10.3075,
    "longitude": 123.9784,
    "category": "4E",
    "runway": "04/22",
    "runwayLength": 9000,
    "runwayCode": "04/22"
  },
  {
    "iata": "CXR",
    "icao": "VVCA",
    "name": "Cam Ranh International Airport",
    "latitude": 12.0044,
    "longitude": 109.2144,
    "category": "4C",
    "runway": "02/20",
    "runwayLength": 8200,
    "runwayCode": "02/20"
  },
  {
    "iata": "DAD",
    "icao": "VVDN",
    "name": "Da Nang International Airport",
    "latitude": 16.0439,
    "longitude": 108.1994,
    "category": "4C",
    "runway": "17/35",
    "runwayLength": 8200,
    "runwayCode": "17/35"
  },
  {
    "iata": "DLI",
    "icao": "VODL",
    "name": "Lal Bahadur Shastri International Airport",
    "latitude": 11.3743,
    "longitude": 78.9187,
    "category": "4C",
    "runway": "08/26",
    "runwayLength": 8200,
    "runwayCode": "08/26"
  },
  {
    "iata": "HBX",
    "icao": "VAHB",
    "name": "Hubli Airport",
    "latitude": 15.3617,
    "longitude": 75.0849,
    "category": "4C",
    "runway": "09/27",
    "runwayLength": 8200,
    "runwayCode": "09/27"
  },
  {
    "iata": "HDY",
    "icao": "VTSS",
    "name": "Hat Yai International Airport",
    "latitude": 7.0147,
    "longitude": 100.3931,
    "category": "4C",
    "runway": "09/27",
    "runwayLength": 8200,
    "runwayCode": "09/27"
  },
  {
    "iata": "HIJ",
    "icao": "RJOA",
    "name": "Hiroshima Airport",
    "latitude": 34.4341,
    "longitude": 132.9194,
    "category": "4C",
    "runway": "10/28",
    "runwayLength": 8200,
    "runwayCode": "10/28"
  },
  {
    "iata": "HKT",
    "icao": "VTSP",
    "name": "Phuket International Airport",
    "latitude": 8.1122,
    "longitude": 98.307,
    "category": "4E",
    "runway": "09/27",
    "runwayLength": 12000,
    "runwayCode": "09/27"
  },
  {
    "iata": "IKT",
    "icao": "UIII",
    "name": "Irkutsk International Airport",
    "latitude": 52.2741,
    "longitude": 104.3561,
    "category": "4C",
    "runway": "12/30",
    "runwayLength": 9000,
    "runwayCode": "12/30"
  },
  {
    "iata": "JHG",
    "icao": "ZPJH",
    "name": "Jinghong Xishuangbanna Airport",
    "latitude": 21.9747,
    "longitude": 100.7602,
    "category": "4C",
    "runway": "04/22",
    "runwayLength": 8200,
    "runwayCode": "04/22"
  },
  {
    "iata": "JOG",
    "icao": "WAHH",
    "name": "Adi Sutjipto International Airport",
    "latitude": -7.7881,
    "longitude": 110.4328,
    "category": "4C",
    "runway": "09/27",
    "runwayLength": 8200,
    "runwayCode": "09/27"
  },
  {
    "iata": "KBV",
    "icao": "VTSB",
    "name": "Krabi Airport",
    "latitude": 8.0994,
    "longitude": 98.9887,
    "category": "4C",
    "runway": "14/32",
    "runwayLength": 8200,
    "runwayCode": "14/32"
  },
  {
    "iata": "KMQ",
    "icao": "RJNK",
    "name": "Komatsu Airport",
    "latitude": 36.4028,
    "longitude": 136.4064,
    "category": "4C",
    "runway": "01/19",
    "runwayLength": 9000,
    "runwayCode": "01/19"
  },
  {
    "iata": "KRL",
    "icao": "ZWKL",
    "name": "Korla Airport",
    "latitude": 41.7177,
    "longitude": 86.1267,
    "category": "4C",
    "runway": "14/32",
    "runwayLength": 6000,
    "runwayCode": "14/32"
  },
  {
    "iata": "LBU",
    "icao": "WRLB",
    "name": "Labuan Airport",
    "latitude": 5.2976,
    "longitude": 115.2497,
    "category": "4C",
    "runway": "14/32",
    "runwayLength": 9000,
    "runwayCode": "14/32"
  },
  {
    "iata": "MES",
    "icao": "WIMM",
    "name": "Soekarno-Hatta International Airport",
    "latitude": 3.2964,
    "longitude": 98.6717,
    "category": "4C",
    "runway": "03/21",
    "runwayLength": 9000,
    "runwayCode": "03/21"
  },
  {
    "iata": "MFM",
    "icao": "VMMC",
    "name": "Macau International Airport",
    "latitude": 22.1494,
    "longitude": 113.5917,
    "category": "4E",
    "runway": "16/34",
    "runwayLength": 8200,
    "runwayCode": "16/34"
  },
  {
    "iata": "NGO",
    "icao": "RJGG",
    "name": "Chubu Centrair International Airport",
    "latitude": 34.8594,
    "longitude": 136.8047,
    "category": "4F",
    "runway": "18/36",
    "runwayLength": 12000,
    "runwayCode": "18/36"
  },
  {
    "iata": "POM",
    "icao": "AYPY",
    "name": "Port Moresby Jacksons International Airport",
    "latitude": -9.4438,
    "longitude": 147.22,
    "category": "4C",
    "runway": "14/32",
    "runwayLength": 9000,
    "runwayCode": "14/32"
  },
  {
    "iata": "RGN",
    "icao": "VYYY",
    "name": "Yangon International Airport",
    "latitude": 16.9077,
    "longitude": 96.1333,
    "category": "4C",
    "runway": "04/22",
    "runwayLength": 11000,
    "runwayCode": "04/22"
  },
  {
    "iata": "ROI",
    "icao": "VTUV",
    "name": " Roi Et Airport",
    "latitude": 15.1194,
    "longitude": 103.7756,
    "category": "4C",
    "runway": "09/27",
    "runwayLength": 6000,
    "runwayCode": "09/27"
  },
  {
    "iata": "SEL",
    "icao": "RKSS",
    "name": "Seoul Gimpo International Airport",
    "latitude": 37.559,
    "longitude": 126.7946,
    "category": "4E",
    "runway": "14R/32L",
    "runwayLength": 9000,
    "runwayCode": "14R/32L"
  },
  {
    "iata": "SGN",
    "icao": "VVTS",
    "name": "Tan Son Nhat International Airport",
    "latitude": 10.8188,
    "longitude": 106.652,
    "category": "4E",
    "runway": "07L/25R",
    "runwayLength": 10000,
    "runwayCode": "07L/25R"
  },
  {
    "iata": "SHA",
    "icao": "ZSSS",
    "name": "Shanghai Hongqiao International Airport",
    "latitude": 31.1979,
    "longitude": 121.3203,
    "category": "4E",
    "runway": "18L/36R",
    "runwayLength": 12000,
    "runwayCode": "18L/36R"
  },
  {
    "iata": "SJW",
    "icao": "ZBSJ",
    "name": "Shijiazhuang Zhengding International Airport",
    "latitude": 38.2817,
    "longitude": 114.6961,
    "category": "4E",
    "runway": "15/33",
    "runwayLength": 10000,
    "runwayCode": "15/33"
  },
  {
    "iata": "TNA",
    "icao": "ZSTN",
    "name": "Jinan Yaoqiang International Airport",
    "latitude": 36.8583,
    "longitude": 117.2161,
    "category": "4E",
    "runway": "14/32",
    "runwayLength": 10000,
    "runwayCode": "14/32"
  },
  {
    "iata": "UIO",
    "icao": "SEQU",
    "name": "Mariscal Sucre International Airport",
    "latitude": -0.1292,
    "longitude": -78.3575,
    "category": "4C",
    "runway": "17/35",
    "runwayLength": 8200,
    "runwayCode": "17/35"
  },
  {
    "iata": "VTE",
    "icao": "VLVT",
    "name": "Wattay International Airport",
    "latitude": 17.9881,
    "longitude": 102.5633,
    "category": "4C",
    "runway": "13/31",
    "runwayLength": 7000,
    "runwayCode": "13/31"
  },
  {
    "iata": "WUS",
    "icao": "ZUAQ",
    "name": "Wuyishan Airport",
    "latitude": 27.7019,
    "longitude": 117.9408,
    "category": "4C",
    "runway": "03/21",
    "runwayLength": 7000,
    "runwayCode": "03/21"
  },
  {
    "iata": "YNZ",
    "icao": "ZSCN",
    "name": "Yancheng Nanyang International Airport",
    "latitude": 33.3858,
    "longitude": 120.12,
    "category": "4C",
    "runway": "04/22",
    "runwayLength": 7000,
    "runwayCode": "04/22"
  },
  {
    "iata": "KWI",
    "icao": "OKKK",
    "name": "Kuwait International Airport",
    "latitude": 29.226667,
    "longitude": 47.968611,
    "category": "4F",
    "runway": "15/33",
    "runwayLength": 11483,
    "runwayCode": "15/33"
  },
  {
    "iata": "MCT",
    "icao": "OOMS",
    "name": "Muscat International Airport",
    "latitude": 23.593056,
    "longitude": 58.284444,
    "category": "4F",
    "runway": "08L/26R",
    "runwayLength": 12136,
    "runwayCode": "08L/26R"
  },
  {
    "iata": "AUH",
    "icao": "OMAA",
    "name": "Abu Dhabi International Airport",
    "latitude": 24.433056,
    "longitude": 54.651111,
    "category": "4F",
    "runway": "13L/31R",
    "runwayLength": 13451,
    "runwayCode": "13L/31R"
  },
  {
    "iata": "SHJ",
    "icao": "OMSJ",
    "name": "Sharjah International Airport",
    "latitude": 25.328889,
    "longitude": 55.517222,
    "category": "4C",
    "runway": "12/30",
    "runwayLength": 12467,
    "runwayCode": "12/30"
  },
  {
    "iata": "RKT",
    "icao": "OMRN",
    "name": "Ras Al Khaimah International Airport",
    "latitude": 25.609444,
    "longitude": 55.938889,
    "category": "4C",
    "runway": "16/34",
    "runwayLength": 11483,
    "runwayCode": "16/34"
  },
  {
    "iata": "MED",
    "icao": "OEMA",
    "name": "Prince Mohammad bin Abdulaziz Airport",
    "latitude": 24.553333,
    "longitude": 39.705,
    "category": "4F",
    "runway": "16/34",
    "runwayLength": 11811,
    "runwayCode": "16/34"
  },
  {
    "iata": "JED",
    "icao": "OEJN",
    "name": "King Abdulaziz International Airport",
    "latitude": 21.679583,
    "longitude": 39.156472,
    "category": "4F",
    "runway": "16R/34L",
    "runwayLength": 13123,
    "runwayCode": "16R/34L"
  },
  {
    "iata": "HYD",
    "icao": "VOHS",
    "name": "Rajiv Gandhi International Airport",
    "latitude": 17.231389,
    "longitude": 77.793611,
    "category": "4F",
    "runway": "09L/27R",
    "runwayLength": 12136,
    "runwayCode": "09L/27R"
  },
  {
    "iata": "BLR",
    "icao": "VOBL",
    "name": "Kempegowda International Airport",
    "latitude": 13.196944,
    "longitude": 77.706111,
    "category": "4F",
    "runway": "09L/27R",
    "runwayLength": 12467,
    "runwayCode": "09L/27R"
  },
  {
    "iata": "CCU",
    "icao": "VECC",
    "name": "Netaji Subhas Chandra Bose International Airport",
    "latitude": 22.654722,
    "longitude": 88.446667,
    "category": "4C",
    "runway": "19L/01R",
    "runwayLength": 11483,
    "runwayCode": "19L/01R"
  },
  {
    "iata": "LHE",
    "icao": "OPLA",
    "name": "Allama Iqbal International Airport",
    "latitude": 31.521667,
    "longitude": 74.403611,
    "category": "4C",
    "runway": "18R/36L",
    "runwayLength": 11155,
    "runwayCode": "18R/36L"
  },
  {
    "iata": "SAW",
    "icao": "LTFJ",
    "name": "Sabiha Gokcen International Airport",
    "latitude": 40.898611,
    "longitude": 29.309167,
    "category": "4E",
    "runway": "06/24",
    "runwayLength": 11483,
    "runwayCode": "06/24"
  },
  {
    "iata": "ESB",
    "icao": "LTAC",
    "name": "Ankara Esenboga Airport",
    "latitude": 40.128333,
    "longitude": 32.995278,
    "category": "4F",
    "runway": "03R/21L",
    "runwayLength": 12467,
    "runwayCode": "03R/21L"
  },
  {
    "iata": "ADB",
    "icao": "LTBT",
    "name": "Izmir Adnan Menderes Airport",
    "latitude": 38.289444,
    "longitude": 27.156944,
    "category": "4E",
    "runway": "16L/34R",
    "runwayLength": 11483,
    "runwayCode": "16L/34R"
  },
  {
    "iata": "KIX",
    "icao": "RJBB",
    "name": "Kansai International Airport",
    "latitude": 34.427222,
    "longitude": 135.244444,
    "category": "4F",
    "runway": "06R/24L",
    "runwayLength": 13123,
    "runwayCode": "06R/24L"
  },
  {
    "iata": "TSA",
    "icao": "RCSS",
    "name": "Taipei Songshan Airport",
    "latitude": 25.069722,
    "longitude": 121.5525,
    "category": "4C",
    "runway": "10/28",
    "runwayLength": 8858,
    "runwayCode": "10/28"
  },
  {
    "iata": "PKX",
    "icao": "ZBAD",
    "name": "Beijing Daxing International Airport",
    "latitude": 39.667222,
    "longitude": 116.388889,
    "category": "4F",
    "runway": "01L/19R",
    "runwayLength": 12467,
    "runwayCode": "01L/19R"
  },
  {
    "iata": "PUS",
    "icao": "RKPK",
    "name": "Gimhae International Airport",
    "latitude": 35.179444,
    "longitude": 128.938333,
    "category": "4C",
    "runway": "09L/27R",
    "runwayLength": 11483,
    "runwayCode": "09L/27R"
  },
  {
    "iata": "CJU",
    "icao": "RKPC",
    "name": "Jeju International Airport",
    "latitude": 33.511667,
    "longitude": 126.492778,
    "category": "4C",
    "runway": "06/24",
    "runwayLength": 10827,
    "runwayCode": "06/24"
  },
  {
    "iata": "BKI",
    "icao": "WBKK",
    "name": "Kota Kinabalu International Airport",
    "latitude": 5.937778,
    "longitude": 116.003056,
    "category": "4C",
    "runway": "02/20",
    "runwayLength": 11155,
    "runwayCode": "02/20"
  },
  {
    "iata": "SUB",
    "icao": "WARR",
    "name": "Juanda International Airport",
    "latitude": -7.379836,
    "longitude": 112.786858,
    "category": "4C",
    "runway": "10/28",
    "runwayLength": 11811,
    "runwayCode": "10/28"
  },
  {
    "iata": "DPS",
    "icao": "WADD",
    "name": "Ngurah Rai International Airport",
    "latitude": -8.748167,
    "longitude": 115.167167,
    "category": "4C",
    "runway": "09/27",
    "runwayLength": 9843,
    "runwayCode": "09/27"
  },
  {
    "iata": "HAN",
    "icao": "VVNB",
    "name": "Noi Bai International Airport",
    "latitude": 21.221667,
    "longitude": 105.807222,
    "category": "4C",
    "runway": "11L/29R",
    "runwayLength": 11483,
    "runwayCode": "11L/29R"
  },
  {
    "iata": "MNL",
    "icao": "RPLL",
    "name": "Ninoy Aquino International Airport",
    "latitude": 14.508611,
    "longitude": 121.019722,
    "category": "4C",
    "runway": "06/24",
    "runwayLength": 11483,
    "runwayCode": "06/24"
  },
  {
    "iata": "DMK",
    "icao": "VTBD",
    "name": "Don Mueang International Airport",
    "latitude": 13.912503,
    "longitude": 100.606728,
    "category": "4C",
    "runway": "03L/21R",
    "runwayLength": 11483,
    "runwayCode": "03L/21R"
  },
  {
    "iata": "PNH",
    "icao": "VDPP",
    "name": "Phnom Penh International Airport",
    "latitude": 11.546556,
    "longitude": 104.923861,
    "category": "4C",
    "runway": "05/23",
    "runwayLength": 9843,
    "runwayCode": "05/23"
  },
  {
    "iata": "REP",
    "icao": "VDSR",
    "name": "Siem Reap International Airport",
    "latitude": 13.410667,
    "longitude": 103.812667,
    "category": "4C",
    "runway": "16/34",
    "runwayLength": 9843,
    "runwayCode": "16/34"
  },
  {
    "iata": "BWN",
    "icao": "WBSB",
    "name": "Brunei International Airport",
    "latitude": 4.944167,
    "longitude": 114.928333,
    "category": "4C",
    "runway": "03/21",
    "runwayLength": 12136,
    "runwayCode": "03/21"
  }
]