[
  {
    "iata": "AAL",
    "icao": "EKYT",
    "name": "Aalborg Airport",
    "latitude": 57.0928,
    "longitude": 9.8496,
    "category": "4C",
    "runway": "08/26",
    "runwayLength": 8000,
    "runwayCode": "08/26"
  },
  {
    "iata": "ACE",
    "icao": "GCRR",
    "name": "Lanzarote Airport",
    "latitude": 28.9455,
    "longitude": -13.605,
    "category": "4C",
    "runway": "03/21",
    "runwayLength": 8200,
    "runwayCode": "03/21"
  },
  {
    "iata": "AGP",
    "icao": "LEMG",
    "name": "M\u00e1laga-Costa del Sol Airport",
    "latitude": 36.6749,
    "longitude": -4.4991,
    "category": "4D",
    "runway": "12/30",
    "runwayLength": 9000,
    "runwayCode": "12/30"
  },
  {
    "iata": "AJA",
    "icao": "LFKJ",
    "name": "Ajaccio Napoleon Bonaparte Airport",
    "latitude": 41.9236,
    "longitude": 8.7932,
    "category": "4C",
    "runway": "01/19",
    "runwayLength": 6500,
    "runwayCode": "01/19"
  },
  {
    "iata": "ANR",
    "icao": "EBAW",
    "name": "Antwerp International Airport",
    "latitude": 51.2644,
    "longitude": 4.4603,
    "category": "4C",
    "runway": "11/29",
    "runwayLength": 5200,
    "runwayCode": "11/29"
  },
  {
    "iata": "AOI",
    "icao": "LIPY",
    "name": "Ancona-Falconara Airport",
    "latitude": 43.6163,
    "longitude": 13.3593,
    "category": "4C",
    "runway": "06/24",
    "runwayLength": 6500,
    "runwayCode": "06/24"
  },
  {
    "iata": "AYT",
    "icao": "LTAI",
    "name": "Antalya Airport",
    "latitude": 36.8987,
    "longitude": 30.8005,
    "category": "4F",
    "runway": "18/36",
    "runwayLength": 10000,
    "runwayCode": "18/36"
  },
  {
    "iata": "BDS",
    "icao": "EIBD",
    "name": "Brest Bretagne Airport",
    "latitude": 48.4487,
    "longitude": -4.4183,
    "category": "4C",
    "runway": "08/26",
    "runwayLength": 6500,
    "runwayCode": "08/26"
  },
  {
    "iata": "BGY",
    "icao": "LIME",
    "name": "Milan Bergamo Airport",
    "latitude": 45.6739,
    "longitude": 9.7044,
    "category": "4C",
    "runway": "10/28",
    "runwayLength": 6500,
    "runwayCode": "10/28"
  },
  {
    "iata": "BHX",
    "icao": "EGBB",
    "name": "Birmingham Airport",
    "latitude": 52.4539,
    "longitude": -1.748,
    "category": "4D",
    "runway": "15/33",
    "runwayLength": 8500,
    "runwayCode": "15/33"
  },
  {
    "iata": "BIQ",
    "icao": "LFBZ",
    "name": "Biarritz Pays Basque Airport",
    "latitude": 43.3015,
    "longitude": -1.5311,
    "category": "4C",
    "runway": "09/27",
    "runwayLength": 6500,
    "runwayCode": "09/27"
  },
  {
    "iata": "BLL",
    "icao": "EKBI",
    "name": "Billund Airport",
    "latitude": 55.7404,
    "longitude": 9.1517,
    "category": "4C",
    "runway": "09/27",
    "runwayLength": 6500,
    "runwayCode": "09/27"
  },
  {
    "iata": "BLQ",
    "icao": "LIPE",
    "name": "Bologna Guglielmo Marconi Airport",
    "latitude": 44.5354,
    "longitude": 11.2887,
    "category": "4D",
    "runway": "12/30",
    "runwayLength": 8500,
    "runwayCode": "12/30"
  },
  {
    "iata": "BOJ",
    "icao": "LBBG",
    "name": "Burgas Airport",
    "latitude": 42.5679,
    "longitude": 27.5152,
    "category": "4D",
    "runway": "04/22",
    "runwayLength": 8200,
    "runwayCode": "04/22"
  },
  {
    "iata": "BRS",
    "icao": "EGGD",
    "name": "Bristol Airport",
    "latitude": 51.3827,
    "longitude": -2.6911,
    "category": "4D",
    "runway": "09/27",
    "runwayLength": 6500,
    "runwayCode": "09/27"
  },
  {
    "iata": "BTS",
    "icao": "LZIB",
    "name": "M. R. \u0160tef\u00e1nik Airport",
    "latitude": 48.1702,
    "longitude": 17.2127,
    "category": "4C",
    "runway": "13/31",
    "runwayLength": 6500,
    "runwayCode": "13/31"
  },
  {
    "iata": "BVA",
    "icao": "LFOB",
    "name": "Beauvais-Till\u00e9 Airport",
    "latitude": 49.4544,
    "longitude": 2.1128,
    "category": "4C",
    "runway": "05/23",
    "runwayLength": 6500,
    "runwayCode": "05/23"
  },
  {
    "iata": "BZR",
    "icao": "LFMN",
    "name": "B\u00e9ziers Cap d'Agde Airport",
    "latitude": 43.3234,
    "longitude": 3.3535,
    "category": "4C",
    "runway": "04/22",
    "runwayLength": 6500,
    "runwayCode": "04/22"
  },
  {
    "iata": "CAI",
    "icao": "HECA",
    "name": "Cairo International Airport",
    "latitude": 30.1219,
    "longitude": 31.4056,
    "category": "4F",
    "runway": "05L/23R",
    "runwayLength": 12000,
    "runwayCode": "05L/23R"
  },
  {
    "iata": "CFU",
    "icao": "LGKR",
    "name": "Corfu International Airport",
    "latitude": 39.6019,
    "longitude": 19.9117,
    "category": "4D",
    "runway": "06/24",
    "runwayLength": 6500,
    "runwayCode": "06/24"
  },
  {
    "iata": "CHQ",
    "icao": "LGSA",
    "name": "Chania International Airport",
    "latitude": 35.5316,
    "longitude": 24.1497,
    "category": "4D",
    "runway": "12/30",
    "runwayLength": 6500,
    "runwayCode": "12/30"
  },
  {
    "iata": "CTA",
    "icao": "LICC",
    "name": "Catania-Fontanarossa Airport",
    "latitude": 37.4668,
    "longitude": 15.0664,
    "category": "4D",
    "runway": "08/26",
    "runwayLength": 8500,
    "runwayCode": "08/26"
  },
  {
    "iata": "CTG",
    "icao": "SKCL",
    "name": "Rafael N\u00fa\u00f1ez International Airport",
    "latitude": 10.4414,
    "longitude": -75.513,
    "category": "4D",
    "runway": "05/23",
    "runwayLength": 8500,
    "runwayCode": "05/23"
  },
  {
    "iata": "CVA",
    "icao": "LFMD",
    "name": "Cannes-Mandelieu Airport",
    "latitude": 43.5422,
    "longitude": 6.9556,
    "category": "3C",
    "runway": "17/35",
    "runwayLength": 5200,
    "runwayCode": "17/35"
  },
  {
    "iata": "DLC",
    "icao": "ZYTL",
    "name": "Dalian Zhoushuizi International Airport",
    "latitude": 38.9744,
    "longitude": 121.5388,
    "category": "4E",
    "runway": "03/21",
    "runwayLength": 8500,
    "runwayCode": "03/21"
  },
  {
    "iata": "DLG",
    "icao": "PADL",
    "name": "Dillingham Airport",
    "latitude": 59.7547,
    "longitude": -158.6189,
    "category": "3C",
    "runway": "01/19",
    "runwayLength": 6500,
    "runwayCode": "01/19"
  },
  {
    "iata": "DSA",
    "icao": "EGCN",
    "name": "Doncaster Sheffield Airport",
    "latitude": 53.4745,
    "longitude": -1.0044,
    "category": "4C",
    "runway": "02/20",
    "runwayLength": 6500,
    "runwayCode": "02/20"
  },
  {
    "iata": "DUR",
    "icao": "FADN",
    "name": "King Shaka International Airport",
    "latitude": -29.6144,
    "longitude": 31.1196,
    "category": "4F",
    "runway": "06/24",
    "runwayLength": 12000,
    "runwayCode": "06/24"
  },
  {
    "iata": "EAP",
    "icao": "EDSB",
    "name": "Karlsruhe/Baden-Baden Airport",
    "latitude": 48.7793,
    "longitude": 8.0803,
    "category": "4C",
    "runway": "03/21",
    "runwayLength": 6500,
    "runwayCode": "03/21"
  },
  {
    "iata": "EBU",
    "icao": "LFMU",
    "name": "N\u00eemes-Al\u00e8s-Camargue-C\u00e9vennes Airport",
    "latitude": 43.7574,
    "longitude": 4.4163,
    "category": "4C",
    "runway": "02/20",
    "runwayLength": 6500,
    "runwayCode": "02/20"
  },
  {
    "iata": "EGO",
    "icao": "EDBW",
    "name": "Weisshorn Airport",
    "latitude": 52.1234,
    "longitude": 7.6789,
    "category": "3C",
    "runway": "09/27",
    "runwayLength": 3400,
    "runwayCode": "09/27"
  },
  {
    "iata": "EIN",
    "icao": "EHEH",
    "name": "Eindhoven Airport",
    "latitude": 51.45,
    "longitude": 5.3747,
    "category": "4C",
    "runway": "04/22",
    "runwayLength": 6500,
    "runwayCode": "04/22"
  },
  {
    "iata": "EMA",
    "icao": "EGNX",
    "name": "East Midlands Airport",
    "latitude": 52.8281,
    "longitude": -1.3281,
    "category": "4D",
    "runway": "09/27",
    "runwayLength": 8500,
    "runwayCode": "09/27"
  },
  {
    "iata": "ENY",
    "icao": "ECDC",
    "name": "Castell\u00f3n-Costa Azahar Airport",
    "latitude": 40.2188,
    "longitude": 0.0664,
    "category": "4C",
    "runway": "04/22",
    "runwayLength": 6500,
    "runwayCode": "04/22"
  },
  {
    "iata": "ERC",
    "icao": "LTCD",
    "name": "Erzincan Airport",
    "latitude": 39.7542,
    "longitude": 39.5278,
    "category": "4C",
    "runway": "03/21",
    "runwayLength": 6500,
    "runwayCode": "03/21"
  },
  {
    "iata": "ESL",
    "icao": "EDKE",
    "name": "Karlsruhe-Forchheim Airport",
    "latitude": 48.9456,
    "longitude": 8.4321,
    "category": "3C",
    "runway": "08/26",
    "runwayLength": 4000,
    "runwayCode": "08/26"
  },
  {
    "iata": "ETZ",
    "icao": "LFJL",
    "name": "Metz-Nancy-Lorraine Airport",
    "latitude": 48.9871,
    "longitude": 6.2589,
    "category": "4C",
    "runway": "04/22",
    "runwayLength": 6500,
    "runwayCode": "04/22"
  },
  {
    "iata": "EVE",
    "icao": "ENEV",
    "name": "Harstad/Narvik Airport",
    "latitude": 68.4914,
    "longitude": 16.6781,
    "category": "4C",
    "runway": "12/30",
    "runwayLength": 6500,
    "runwayCode": "12/30"
  },
  {
    "iata": "EXT",
    "icao": "EGTE",
    "name": "Exeter International Airport",
    "latitude": 50.7344,
    "longitude": -3.4139,
    "category": "4C",
    "runway": "08/26",
    "runwayLength": 6500,
    "runwayCode": "08/26"
  },
  {
    "iata": "FAO",
    "icao": "LPFR",
    "name": "Faro Airport",
    "latitude": 37.0144,
    "longitude": -7.9658,
    "category": "4D",
    "runway": "10/28",
    "runwayLength": 8500,
    "runwayCode": "10/28"
  },
  {
    "iata": "FMO",
    "icao": "EDDG",
    "name": "M\u00fcnster Osnabr\u00fcck Airport",
    "latitude": 52.1346,
    "longitude": 7.6849,
    "category": "4C",
    "runway": "07/25",
    "runwayLength": 6500,
    "runwayCode": "07/25"
  },
  {
    "iata": "FUE",
    "icao": "GCFV",
    "name": "Fuerteventura Airport",
    "latitude": 28.4524,
    "longitude": -13.8638,
    "category": "4C",
    "runway": "01/19",
    "runwayLength": 8200,
    "runwayCode": "01/19"
  },
  {
    "iata": "GVA",
    "icao": "LSGG",
    "name": "Geneva Airport",
    "latitude": 46.2382,
    "longitude": 6.109,
    "category": "4D",
    "runway": "05/23",
    "runwayLength": 8500,
    "runwayCode": "05/23"
  },
  {
    "iata": "HAJ",
    "icao": "EDDV",
    "name": "Hannover Airport",
    "latitude": 52.4611,
    "longitude": 9.685,
    "category": "4D",
    "runway": "09L/27R",
    "runwayLength": 8500,
    "runwayCode": "09L/27R"
  },
  {
    "iata": "HEL",
    "icao": "EFHK",
    "name": "Helsinki Airport",
    "latitude": 60.3172,
    "longitude": 24.9633,
    "category": "4F",
    "runway": "04L/22R",
    "runwayLength": 11000,
    "runwayCode": "04L/22R"
  },
  {
    "iata": "HER",
    "icao": "LGIR",
    "name": "Heraklion International Airport",
    "latitude": 35.3397,
    "longitude": 25.1803,
    "category": "4D",
    "runway": "09/27",
    "runwayLength": 8500,
    "runwayCode": "09/27"
  },
  {
    "iata": "HDB",
    "icao": "EDTB",
    "name": "Heidelberg Airport",
    "latitude": 49.391667,
    "longitude": 8.652222,
    "category": "4C",
    "runway": "02/20",
    "runwayLength": 4987,
    "runwayCode": "02/20"
  },
  {
    "iata": "HIS",
    "icao": "YHID",
    "name": "Hayman Island Airport",
    "latitude": -20.061111,
    "longitude": 148.873611,
    "category": "4C",
    "runway": "17/35",
    "runwayLength": 6004,
    "runwayCode": "17/35"
  },
  {
    "iata": "HMV",
    "icao": "ESNA",
    "name": "Hemavan Airport",
    "latitude": 65.806111,
    "longitude": 15.078889,
    "category": "3C",
    "runway": "08/26",
    "runwayLength": 4593,
    "runwayCode": "08/26"
  },
  {
    "iata": "HOQ",
    "icao": "EDQM",
    "name": "Hof Airport",
    "latitude": 50.288611,
    "longitude": 11.855278,
    "category": "4B",
    "runway": "09/27",
    "runwayLength": 6562,
    "runwayCode": "09/27"
  },
  {
    "iata": "HSZ",
    "icao": "EDAC",
    "name": "Hof Airport",
    "latitude": 50.288611,
    "longitude": 11.855278,
    "category": "4B",
    "runway": "09/27",
    "runwayLength": 6562,
    "runwayCode": "09/27"
  },
  {
    "iata": "IBZ",
    "icao": "LEIB",
    "name": "Ibiza Airport",
    "latitude": 38.872861,
    "longitude": 1.373117,
    "category": "4C",
    "runway": "06/24",
    "runwayLength": 8202,
    "runwayCode": "06/24"
  },
  {
    "iata": "ILD",
    "icao": "LELG",
    "name": "Lleida-Alguaire Airport",
    "latitude": 41.727775,
    "longitude": 0.538611,
    "category": "4C",
    "runway": "14/32",
    "runwayLength": 7874,
    "runwayCode": "14/32"
  },
  {
    "iata": "INV",
    "icao": "EGPA",
    "name": "Inverness Airport",
    "latitude": 57.5425,
    "longitude": -4.0475,
    "category": "4C",
    "runway": "05/23",
    "runwayLength": 6234,
    "runwayCode": "05/23"
  },
  {
    "iata": "IOA",
    "icao": "LGIO",
    "name": "Ioannina Airport",
    "latitude": 39.696389,
    "longitude": 20.8225,
    "category": "4C",
    "runway": "12/30",
    "runwayLength": 6562,
    "runwayCode": "12/30"
  },
  {
    "iata": "IOM",
    "icao": "EGNS",
    "name": "Isle of Man Airport",
    "latitude": 54.083333,
    "longitude": -4.623889,
    "category": "4C",
    "runway": "08/26",
    "runwayLength": 5751,
    "runwayCode": "08/26"
  },
  {
    "iata": "IOR",
    "icao": "EIIM",
    "name": "Inishmore Airport",
    "latitude": 53.106667,
    "longitude": -9.653333,
    "category": "3C",
    "runway": "16/34",
    "runwayLength": 4593,
    "runwayCode": "16/34"
  },
  {
    "iata": "ISL",
    "icao": "LTBA",
    "name": "Ataturk International Airport",
    "latitude": 40.976667,
    "longitude": 28.814167,
    "category": "4F",
    "runway": "18R/36L",
    "runwayLength": 11811,
    "runwayCode": "18R/36L"
  },
  {
    "iata": "IXG",
    "icao": "VABO",
    "name": "Jamnagar Airport",
    "latitude": 22.465833,
    "longitude": 69.169167,
    "category": "4C",
    "runway": "06/24",
    "runwayLength": 5984,
    "runwayCode": "06/24"
  },
  {
    "iata": "KEM",
    "icao": "EFKE",
    "name": "Kemi-Tornio Airport",
    "latitude": 65.781667,
    "longitude": 25.076667,
    "category": "4C",
    "runway": "09/27",
    "runwayLength": 6562,
    "runwayCode": "09/27"
  },
  {
    "iata": "KGD",
    "icao": "UMKK",
    "name": "Khrabrovo Airport",
    "latitude": 54.889167,
    "longitude": 20.592778,
    "category": "4C",
    "runway": "01/19",
    "runwayLength": 8530,
    "runwayCode": "01/19"
  },
  {
    "iata": "KIR",
    "icao": "EIKY",
    "name": "Kerry Airport",
    "latitude": 52.180833,
    "longitude": -9.523611,
    "category": "4C",
    "runway": "08/26",
    "runwayLength": 4921,
    "runwayCode": "08/26"
  },
  {
    "iata": "KLD",
    "icao": "UUEM",
    "name": "Migalovo Air Base",
    "latitude": 56.824444,
    "longitude": 34.956111,
    "category": "4C",
    "runway": "12/30",
    "runwayLength": 9843,
    "runwayCode": "12/30"
  },
  {
    "iata": "KLR",
    "icao": "ESMQ",
    "name": "Kalmar Airport",
    "latitude": 56.685,
    "longitude": 16.287778,
    "category": "4C",
    "runway": "17/35",
    "runwayLength": 7087,
    "runwayCode": "17/35"
  },
  {
    "iata": "KLU",
    "icao": "LOWK",
    "name": "Klagenfurt Airport",
    "latitude": 46.6425,
    "longitude": 14.337778,
    "category": "4C",
    "runway": "10R/28L",
    "runwayLength": 8858,
    "runwayCode": "10R/28L"
  },
  {
    "iata": "KOK",
    "icao": "EFKO",
    "name": "Kokkola-Pietarsaari Airport",
    "latitude": 63.721389,
    "longitude": 23.051389,
    "category": "4C",
    "runway": "09/27",
    "runwayLength": 8530,
    "runwayCode": "09/27"
  },
  {
    "iata": "KRK",
    "icao": "EPKK",
    "name": "John Paul II International Airport",
    "latitude": 50.077778,
    "longitude": 19.784722,
    "category": "4E",
    "runway": "07/25",
    "runwayLength": 12467,
    "runwayCode": "07/25"
  },
  {
    "iata": "KRN",
    "icao": "ESNG",
    "name": "Kiruna Airport",
    "latitude": 67.822778,
    "longitude": 20.336944,
    "category": "4C",
    "runway": "03/21",
    "runwayLength": 7546,
    "runwayCode": "03/21"
  },
  {
    "iata": "KSC",
    "icao": "LZKZ",
    "name": "Kosice International Airport",
    "latitude": 48.663056,
    "longitude": 21.241111,
    "category": "4C",
    "runway": "01/19",
    "runwayLength": 10499,
    "runwayCode": "01/19"
  },
  {
    "iata": "KTT",
    "icao": "EFKT",
    "name": "Kittila Airport",
    "latitude": 67.701389,
    "longitude": 24.846389,
    "category": "4C",
    "runway": "07/25",
    "runwayLength": 8202,
    "runwayCode": "07/25"
  },
  {
    "iata": "KUN",
    "icao": "EYKA",
    "name": "Kaunas International Airport",
    "latitude": 54.963889,
    "longitude": 23.871111,
    "category": "4C",
    "runway": "08/26",
    "runwayLength": 10827,
    "runwayCode": "08/26"
  },
  {
    "iata": "KVA",
    "icao": "LGKV",
    "name": "Kavala International Airport",
    "latitude": 40.913056,
    "longitude": 24.619167,
    "category": "4C",
    "runway": "14/32",
    "runwayLength": 8202,
    "runwayCode": "14/32"
  },
  {
    "iata": "KXF",
    "icao": "NSKE",
    "name": "Kaitaia Airport",
    "latitude": -35.07,
    "longitude": 173.285,
    "category": "3C",
    "runway": "11/29",
    "runwayLength": 3937,
    "runwayCode": "11/29"
  },
  {
    "iata": "LBA",
    "icao": "EGNM",
    "name": "Leeds Bradford Airport",
    "latitude": 53.865833,
    "longitude": -1.660556,
    "category": "4C",
    "runway": "14/32",
    "runwayLength": 11155,
    "runwayCode": "14/32"
  },
  {
    "iata": "LCJ",
    "icao": "EPLL",
    "name": "Lodz Wladyslaw Reymont Airport",
    "latitude": 51.721944,
    "longitude": 19.398056,
    "category": "4C",
    "runway": "08/26",
    "runwayLength": 9186,
    "runwayCode": "08/26"
  },
  {
    "iata": "LDY",
    "icao": "EGAE",
    "name": "City of Derry Airport",
    "latitude": 55.042222,
    "longitude": -7.160833,
    "category": "4C",
    "runway": "08/26",
    "runwayLength": 5771,
    "runwayCode": "08/26"
  },
  {
    "iata": "LEI",
    "icao": "LEAM",
    "name": "Almeria Airport",
    "latitude": 36.843611,
    "longitude": -2.370278,
    "category": "4C",
    "runway": "08/26",
    "runwayLength": 9843,
    "runwayCode": "08/26"
  },
  {
    "iata": "LIG",
    "icao": "LFBL",
    "name": "Limoges Airport",
    "latitude": 45.862778,
    "longitude": 1.179444,
    "category": "4C",
    "runway": "02/20",
    "runwayLength": 7546,
    "runwayCode": "02/20"
  },
  {
    "iata": "LIL",
    "icao": "LFQQ",
    "name": "Lille Airport",
    "latitude": 50.561111,
    "longitude": 3.089444,
    "category": "4C",
    "runway": "08/26",
    "runwayLength": 10499,
    "runwayCode": "08/26"
  },
  {
    "iata": "LJU",
    "icao": "LJLJ",
    "name": "Ljubljana Joze Pucnik Airport",
    "latitude": 46.223611,
    "longitude": 14.457222,
    "category": "4C",
    "runway": "12/30",
    "runwayLength": 10827,
    "runwayCode": "12/30"
  },
  {
    "iata": "LMP",
    "icao": "LICD",
    "name": "Lampedusa Airport",
    "latitude": 35.517778,
    "longitude": 12.618056,
    "category": "4C",
    "runway": "07/25",
    "runwayLength": 5249,
    "runwayCode": "07/25"
  },
  {
    "iata": "LNZ",
    "icao": "LOWL",
    "name": "Linz Airport",
    "latitude": 48.230278,
    "longitude": 14.1875,
    "category": "4C",
    "runway": "08/26",
    "runwayLength": 9186,
    "runwayCode": "08/26"
  },
  {
    "iata": "LPL",
    "icao": "EGGP",
    "name": "Liverpool John Lennon Airport",
    "latitude": 53.336111,
    "longitude": -2.853889,
    "category": "4C",
    "runway": "09/27",
    "runwayLength": 7546,
    "runwayCode": "09/27"
  },
  {
    "iata": "LRH",
    "icao": "LFBH",
    "name": "La Rochelle-Ile de Re Airport",
    "latitude": 46.188056,
    "longitude": -1.195278,
    "category": "4C",
    "runway": "09/27",
    "runwayLength": 7546,
    "runwayCode": "09/27"
  },
  {
    "iata": "LST",
    "icao": "YMLT",
    "name": "Launceston Airport",
    "latitude": -41.549444,
    "longitude": 147.214167,
    "category": "4C",
    "runway": "18/36",
    "runwayLength": 6726,
    "runwayCode": "18/36"
  },
  {
    "iata": "LTN",
    "icao": "EGGW",
    "name": "London Luton Airport",
    "latitude": 51.874722,
    "longitude": -0.368333,
    "category": "4C",
    "runway": "08/26",
    "runwayLength": 11155,
    "runwayCode": "08/26"
  },
  {
    "iata": "LWO",
    "icao": "UKLL",
    "name": "Lviv Danylo Halytskyi Airport",
    "latitude": 49.8125,
    "longitude": 23.956111,
    "category": "4C",
    "runway": "13/31",
    "runwayLength": 11155,
    "runwayCode": "13/31"
  },
  {
    "iata": "LYS",
    "icao": "LFLL",
    "name": "Lyon-Saint Exupery Airport",
    "latitude": 45.725556,
    "longitude": 5.081111,
    "category": "4E",
    "runway": "18L/36R",
    "runwayLength": 13451,
    "runwayCode": "18L/36R"
  }
]